[
  {
      "iata": "ATL",
      "icao": "KATL",
      "name": "Hartsfield–Jackson Atlanta International Airport",
      "city": "Atlanta",
      "country": "United States",
      "lat": 33.6407,
      "lon": -84.4277
  },
  {
      "iata": "PEK",
      "icao": "ZBAA",
      "name": "Beijing Capital International Airport",
      "city": "Beijing",
      "country": "China",
      "lat": 40.0801,
      "lon": 116.5846
  },
  {
      "iata": "DXB",
      "icao": "OMDB",
      "name": "Dubai International Airport",
      "city": "Dubai",
      "country": "United Arab Emirates",
      "lat": 25.2532,
      "lon": 55.3657
  },
  {
      "iata": "LAX",
      "icao": "KLAX",
      "name": "Los Angeles International Airport",
      "city": "Los Angeles",
      "country": "United States",
      "lat": 33.9416,
      "lon": -118.4085
  },
  {
      "iata": "HND",
      "icao": "RJTT",
      "name": "Tokyo Haneda Airport",
      "city": "Tokyo",
      "country": "Japan",
      "lat": 35.5494,
      "lon": 139.7798
  },
  {
      "iata": "ORD",
      "icao": "KORD",
      "name": "O'Hare International Airport",
      "city": "Chicago",
      "country": "United States",
      "lat": 41.9742,
      "lon": -87.9073
  },
  {
      "iata": "LHR",
      "icao": "EGLL",
      "name": "Heathrow Airport",
      "city": "London",
      "country": "United Kingdom",
      "lat": 51.4700,
      "lon": -0.4543
  },
  {
      "iata": "HKG",
      "icao": "VHHH",
      "name": "Hong Kong International Airport",
      "city": "Hong Kong",
      "country": "China",
      "lat": 22.3080,
      "lon": 113.9185
  },
  {
      "iata": "PVG",
      "icao": "ZSPD",
      "name": "Shanghai Pudong International Airport",
      "city": "Shanghai",
      "country": "China",
      "lat": 31.1443,
      "lon": 121.8083
  },
  {
      "iata": "CDG",
      "icao": "LFPG",
      "name": "Charles de Gaulle Airport",
      "city": "Paris",
      "country": "France",
      "lat": 49.0097,
      "lon": 2.5479
  },
  {
      "iata": "DFW",
      "icao": "KDFW",
      "name": "Dallas/Fort Worth International Airport",
      "city": "Dallas-Fort Worth",
      "country": "United States",
      "lat": 32.8998,
      "lon": -97.0403
  },
  {
      "iata": "AMS",
      "icao": "EHAM",
      "name": "Amsterdam Airport Schiphol",
      "city": "Amsterdam",
      "country": "Netherlands",
      "lat": 52.3105,
      "lon": 4.7683
  },
  {
      "iata": "DEL",
      "icao": "VIDP",
      "name": "Indira Gandhi International Airport",
      "city": "Delhi",
      "country": "India",
      "lat": 28.5562,
      "lon": 77.1000
  },
  {
      "iata": "CAN",
      "icao": "ZGGG",
      "name": "Guangzhou Baiyun International Airport",
      "city": "Guangzhou",
      "country": "China",
      "lat": 23.3924,
      "lon": 113.2988
  },
  {
      "iata": "FRA",
      "icao": "EDDF",
      "name": "Frankfurt Airport",
      "city": "Frankfurt",
      "country": "Germany",
      "lat": 50.0379,
      "lon": 8.5622
  },
  {
      "iata": "IST",
      "icao": "LTFM",
      "name": "Istanbul Airport",
      "city": "Istanbul",
      "country": "Turkey",
      "lat": 41.2753,
      "lon": 28.7529
  },
  {
      "iata": "ICN",
      "icao": "RKSI",
      "name": "Incheon International Airport",
      "city": "Incheon",
      "country": "South Korea",
      "lat": 37.4602,
      "lon": 126.4407
  },
  {
      "iata": "SIN",
      "icao": "WSSS",
      "name": "Singapore Changi Airport",
      "city": "Singapore",
      "country": "Singapore",
      "lat": 1.3644,
      "lon": 103.9915
  },
  {
      "iata": "DEN",
      "icao": "KDEN",
      "name": "Denver International Airport",
      "city": "Denver",
      "country": "United States",
      "lat": 39.8561,
      "lon": -104.6737
  },
  {
      "iata": "BKK",
      "icao": "VTBS",
      "name": "Suvarnabhumi Airport",
      "city": "Bangkok",
      "country": "Thailand",
      "lat": 13.6900,
      "lon": 100.7501
  },
  {
      "iata": "JFK",
      "icao": "KJFK",
      "name": "John F. Kennedy International Airport",
      "city": "New York",
      "country": "United States",
      "lat": 40.6413,
      "lon": -73.7781
  },
  {
      "iata": "KUL",
      "icao": "WMKK",
      "name": "Kuala Lumpur International Airport",
      "city": "Kuala Lumpur",
      "country": "Malaysia",
      "lat": 2.7456,
      "lon": 101.7072
  },
  {
      "iata": "MAD",
      "icao": "LEMD",
      "name": "Adolfo Suárez Madrid Barajas Airport",
      "city": "Madrid",
      "country": "Spain",
      "lat": "40.4722",
      "lon": "-3.5623"
  },
  {
    "iata": "MAD",
    "icao": "LEMD",
    "name": "Adolfo Suárez Madrid–Barajas Airport",
    "city": "Madrid",
    "country": "Spain",
    "lat": 40.4936,
    "lon": -3.5668
},
{
    "iata": "SYD",
    "icao": "YSSY",
    "name": "Sydney Kingsford Smith Airport",
    "city": "Sydney",
    "country": "Australia",
    "lat": -33.9399,
    "lon": 151.1753
},
{
    "iata": "MIA",
    "icao": "KMIA",
    "name": "Miami International Airport",
    "city": "Miami",
    "country": "United States",
    "lat": 25.7959,
    "lon": -80.2870
},
{
    "iata": "MUC",
    "icao": "EDDM",
    "name": "Munich Airport",
    "city": "Munich",
    "country": "Germany",
    "lat": 48.3538,
    "lon": 11.7861
},
{
    "iata": "GRU",
    "icao": "SBGR",
    "name": "São Paulo/Guarulhos–Governador André Franco Montoro International Airport",
    "city": "São Paulo",
    "country": "Brazil",
    "lat": -23.4356,
    "lon": -46.4731
},
{
    "iata": "SEA",
    "icao": "KSEA",
    "name": "Seattle–Tacoma International Airport",
    "city": "Seattle",
    "country": "United States",
    "lat": 47.4502,
    "lon": -122.3088
},
{
    "iata": "LAS",
    "icao": "KLAS",
    "name": "Harry Reid International Airport",
    "city": "Las Vegas",
    "country": "United States",
    "lat": 36.0840,
    "lon": -115.1537
},
{
    "iata": "PHX",
    "icao": "KPHX",
    "name": "Phoenix Sky Harbor International Airport",
    "city": "Phoenix",
    "country": "United States",
    "lat": 33.4342,
    "lon": -112.0116
},
{
    "iata": "IAH",
    "icao": "KIAH",
    "name": "George Bush Intercontinental Airport",
    "city": "Houston",
    "country": "United States",
    "lat": 29.9902,
    "lon": -95.3368
},
{
    "iata": "CLT",
    "icao": "KCLT",
    "name": "Charlotte Douglas International Airport",
    "city": "Charlotte",
    "country": "United States",
    "lat": 35.2140,
    "lon": -80.9431
},
{
    "iata": "MEX",
    "icao": "MMMX",
    "name": "Mexico City International Airport",
    "city": "Mexico City",
    "country": "Mexico",
    "lat": 19.4363,
    "lon": -99.0721
},
{
    "iata": "BOM",
    "icao": "VABB",
    "name": "Chhatrapati Shivaji Maharaj International Airport",
    "city": "Mumbai",
    "country": "India",
    "lat": 19.0896,
    "lon": 72.8656
},
{
    "iata": "SFO",
    "icao": "KSFO",
    "name": "San Francisco International Airport",
    "city": "San Francisco",
    "country": "United States",
    "lat": 37.6213,
    "lon": -122.3790
},
{
    "iata": "FCO",
    "icao": "LIRF",
    "name": "Leonardo da Vinci Fiumicino Airport",
    "city": "Rome",
    "country": "Italy",
    "lat": 41.7999,
    "lon": 12.2462
},
{
    "iata": "YYZ",
    "icao": "CYYZ",
    "name": "Toronto Pearson International Airport",
    "city": "Toronto",
    "country": "Canada",
    "lat": 43.6777,
    "lon": -79.6248
},
{
    "iata": "KMG",
    "icao": "ZPPP",
    "name": "Kunming Changshui International Airport",
    "city": "Kunming",
    "country": "China",
    "lat": 25.1019,
    "lon": 102.9292
},
{
    "iata": "SZX",
    "icao": "ZGSZ",
    "name": "Shenzhen Bao'an International Airport",
    "city": "Shenzhen",
    "country": "China",
    "lat": 22.6393,
    "lon": 113.8107
},
{
    "iata": "CGK",
    "icao": "WIII",
    "name": "Soekarno–Hatta International Airport",
    "city": "Jakarta",
    "country": "Indonesia",
    "lat": -6.1256,
    "lon": 106.6559
},
{
    "iata": "BOS",
    "icao": "KBOS",
    "name": "Logan International Airport",
    "city": "Boston",
    "country": "United States",
    "lat": 42.3656,
    "lon": -71.0096
},
{
    "iata": "MCO",
    "icao": "KMCO",
    "name": "Orlando International Airport",
    "city": "Orlando",
    "country": "United States",
    "lat": 28.4312,
    "lon": -81.3081
},
{
    "iata": "MNL",
    "icao": "RPLL",
    "name": "Ninoy Aquino International Airport",
    "city": "Manila",
    "country": "Philippines",
    "lat": 14.5086,
    "lon": 121.0198
},
{
    "iata": "DTW",
    "icao": "KDTW",
    "name": "Detroit Metropolitan Wayne County Airport",
    "city": "Detroit",
    "country": "United States",
    "lat": 42.2124,
    "lon": -83.3534
},
{
  "iata": "SYD",
  "icao": "YSSY",
  "name": "Sydney Kingsford Smith Airport",
  "city": "Sydney",
  "country": "Australia",
  "lat": -33.9399,
  "lon": 151.1753
},
{
  "iata": "MIA",
  "icao": "KMIA",
  "name": "Miami International Airport",
  "city": "Miami",
  "country": "United States",
  "lat": 25.7959,
  "lon": -80.2870
},
{
  "iata": "MUC",
  "icao": "EDDM",
  "name": "Munich Airport",
  "city": "Munich",
  "country": "Germany",
  "lat": 48.3538,
  "lon": 11.7861
},
{
  "iata": "GRU",
  "icao": "SBGR",
  "name": "São Paulo/Guarulhos–Governador André Franco Montoro International Airport",
  "city": "São Paulo",
  "country": "Brazil",
  "lat": -23.4356,
  "lon": -46.4731
},
{
  "iata": "SEA",
  "icao": "KSEA",
  "name": "Seattle–Tacoma International Airport",
  "city": "Seattle",
  "country": "United States",
  "lat": 47.4502,
  "lon": -122.3088
},
{
  "iata": "LAS",
  "icao": "KLAS",
  "name": "Harry Reid International Airport",
  "city": "Las Vegas",
  "country": "United States",
  "lat": 36.0840,
  "lon": -115.1537
},
{
  "iata": "PHX",
  "icao": "KPHX",
  "name": "Phoenix Sky Harbor International Airport",
  "city": "Phoenix",
  "country": "United States",
  "lat": 33.4342,
  "lon": -112.0116
},
{
  "iata": "IAH",
  "icao": "KIAH",
  "name": "George Bush Intercontinental Airport",
  "city": "Houston",
  "country": "United States",
  "lat": 29.9902,
  "lon": -95.3368
},
{
  "iata": "CLT",
  "icao": "KCLT",
  "name": "Charlotte Douglas International Airport",
  "city": "Charlotte",
  "country": "United States",
  "lat": 35.2140,
  "lon": -80.9431
},
{
  "iata": "MEX",
  "icao": "MMMX",
  "name": "Mexico City International Airport",
  "city": "Mexico City",
  "country": "Mexico",
  "lat": 19.4363,
  "lon": -99.0721
},
{
  "iata": "BOM",
  "icao": "VABB",
  "name": "Chhatrapati Shivaji Maharaj International Airport",
  "city": "Mumbai",
  "country": "India",
  "lat": 19.0896,
  "lon": 72.8656
},
{
  "iata": "SFO",
  "icao": "KSFO",
  "name": "San Francisco International Airport",
  "city": "San Francisco",
  "country": "United States",
  "lat": 37.6213,
  "lon": -122.3790
},
{
  "iata": "FCO",
  "icao": "LIRF",
  "name": "Leonardo da Vinci–Fiumicino Airport",
  "city": "Rome",
  "country": "Italy",
  "lat": 41.7999,
  "lon": 12.2462
},
{
  "iata": "YYZ",
  "icao": "CYYZ",
  "name": "Toronto Pearson International Airport",
  "city": "Toronto",
  "country": "Canada",
  "lat": 43.6777,
  "lon": -79.6248
},
{
  "iata": "KMG",
  "icao": "ZPPP",
  "name": "Kunming Changshui International Airport",
  "city": "Kunming",
  "country": "China",
  "lat": 25.1019,
  "lon": 102.9292
},
{
  "iata": "SZX",
  "icao": "ZGSZ",
  "name": "Shenzhen Bao'an International Airport",
  "city": "Shenzhen",
  "country": "China",
  "lat": 22.6393,
  "lon": 113.8107
},
{
  "iata": "CGK",
  "icao": "WIII",
  "name": "Soekarno–Hatta International Airport",
  "city": "Jakarta",
  "country": "Indonesia",
  "lat": -6.1256,
  "lon": 106.6559
},
{
  "iata": "BOS",
  "icao": "KBOS",
  "name": "Logan International Airport",
  "city": "Boston",
  "country": "United States",
  "lat": 42.3656,
  "lon": -71.0096
},
{
  "iata": "MCO",
  "icao": "KMCO",
  "name": "Orlando International Airport",
  "city": "Orlando",
  "country": "United States",
  "lat": 28.4312,
  "lon": -81.3081
},
{
  "iata": "MNL",
  "icao": "RPLL",
  "name": "Ninoy Aquino International Airport",
  "city": "Manila",
  "country": "Philippines",
  "lat": 14.5086,
  "lon": 121.0198
},
{
  "iata": "DTW",
  "icao": "KDTW",
  "name": "Detroit Metropolitan Wayne County Airport",
  "city": "Detroit",
  "country": "United States",
  "lat": 42.2124,
  "lon": -83.3534
},
{
  "iata": "MSP",
  "icao": "KMSP",
  "name": "Minneapolis–Saint Paul International Airport",
  "city": "Minneapolis",
  "country": "United States",
  "lat": 44.8848,
  "lon": -93.2223
},
{
  "iata": "DME",
  "icao": "UUDD",
  "name": "Domodedovo International Airport",
  "city": "Moscow",
  "country": "Russia",
  "lat": 55.4088,
  "lon": 37.9063
},
{
  "iata": "JFK",
  "icao": "KJFK",
  "name": "John F. Kennedy International Airport",
  "city": "New York City",
  "country": "United States",
  "lat": 40.6413,
  "lon": -73.7781
},
{
  "iata": "EZE",
  "icao": "SAEZ",
  "name": "Ministro Pistarini International Airport",
  "city": "Buenos Aires",
  "country": "Argentina",
  "lat": -34.8222,
  "lon": -58.5358
},
{
  "iata": "DEL",
  "icao": "VIDP",
  "name": "Indira Gandhi International Airport",
  "city": "Delhi",
  "country": "India",
  "lat": 28.5562,
  "lon": 77.1000
},
{
  "iata": "GIG",
  "icao": "SBGL",
  "name": "Rio de Janeiro/Galeão International Airport",
  "city": "Rio de Janeiro",
  "country": "Brazil",
  "lat": -22.8096,
  "lon": -43.2436
},
{
  "iata": "BCN",
  "icao": "LEBL",
  "name": "Josep Tarradellas Barcelona–El Prat Airport",
  "city": "Barcelona",
  "country": "Spain",
  "lat": 41.2974,
  "lon": 2.0833
},
{
  "iata": "LGA",
  "icao": "KLGA",
  "name": "LaGuardia Airport",
  "city": "New York City",
  "country": "United States",
  "lat": 40.7769,
  "lon": -73.8740
},
{
  "iata": "SVO",
  "icao": "UUEE",
  "name": "Sheremetyevo International Airport",
  "city": "Moscow",
  "country": "Russia",
  "lat": 55.9726,
  "lon": 37.4146
},
{
  "iata": "ICN",
  "icao": "RKSI",
  "name": "Incheon International Airport",
  "city": "Seoul",
  "country": "South Korea",
  "lat": 37.4602,
  "lon": 126.4407
},
{
  "iata": "ZRH",
  "icao": "LSZH",
  "name": "Zurich Airport",
  "city": "Zurich",
  "country": "Switzerland",
  "lat": 47.4647,
  "lon": 8.5492
},
{
  "iata": "IND",
  "icao": "CSMIA",
  "name": "Chhtrapati Shivaji Maharaj International Airport",
  "country": "INDIA",
  "lat": 19.8744,
  "lon": 75.2750
},
 {
  "iata": "DEL",
  "icao": "VIDP",
  "name": "Indira Gandhi International Airport",
  "city": "New Delhi",
  "country": "India",
  "lat": 28.5562,
  "lon": 77.1000
},
{
  "iata": "BOM",
  "icao": "VABB",
  "name": "Chhatrapati Shivaji Maharaj International Airport",
  "city": "Mumbai",
  "country": "India",
  "lat": 19.0896,
  "lon": 72.8656
},
{
  "iata": "BLR",
  "icao": "VOBL",
  "name": "Kempegowda International Airport",
  "city": "Bengaluru",
  "country": "India",
  "lat": 13.1989,
  "lon": 77.7069
},
{
  "iata": "MAA",
  "icao": "VOMM",
  "name": "Chennai International Airport",
  "city": "Chennai",
  "country": "India",
  "lat": 12.9941,
  "lon": 80.1707
},
{
  "iata": "HYD",
  "icao": "VOHS",
  "name": "Rajiv Gandhi International Airport",
  "city": "Hyderabad",
  "country": "India",
  "lat": 17.2403,
  "lon": 78.4294
},
{
  "iata": "CCU",
  "icao": "VECC",
  "name": "Netaji Subhas Chandra Bose International Airport",
  "city": "Kolkata",
  "country": "India",
  "lat": 22.6547,
  "lon": 88.4467
},
{
  "iata": "AMD",
  "icao": "VAAH",
  "name": "Sardar Vallabhbhai Patel International Airport",
  "city": "Ahmedabad",
  "country": "India",
  "lat": 23.0772,
  "lon": 72.6347
},
{
  "iata": "GOI",
  "icao": "VOGO",
  "name": "Goa International Airport",
  "city": "Goa",
  "country": "India",
  "lat": 15.3800,
  "lon": 73.8311
},
{
  "iata": "PNQ",
  "icao": "VAPO",
  "name": "Pune International Airport",
  "city": "Pune",
  "country": "India",
  "lat": 18.5822,
  "lon": 73.9197
},
{
  "iata": "EWR",
  "icao": "KEWR",
  "name": "Newark Liberty International Airport",
  "city": "Newark",
  "country": "United States",
  "lat": 40.6895,
  "lon": -74.1745
},
{
  "iata": "DME",
  "icao": "UUDD",
  "name": "Domodedovo International Airport",
  "city": "Moscow",
  "country": "Russia",
  "lat": 55.4088,
  "lon": 37.9063
},
{
  "iata": "NRT",
  "icao": "RJAA",
  "name": "Narita International Airport",
  "city": "Tokyo",
  "country": "Japan",
  "lat": 35.7720,
  "lon": 140.3929
},
{
  "iata": "LGW",
  "icao": "EGKK",
  "name": "Gatwick Airport",
  "city": "London",
  "country": "United Kingdom",
  "lat": 51.1537,
  "lon": -0.1821
},
{
  "iata": "FLL",
  "icao": "KFLL",
  "name": "Fort Lauderdale–Hollywood International Airport",
  "city": "Fort Lauderdale",
  "country": "United States",
  "lat": 26.0726,
  "lon": -80.1527
},
{
  "iata": "SLC",
  "icao": "KSLC",
  "name": "Salt Lake City International Airport",
  "city": "Salt Lake City",
  "country": "United States",
  "lat": 40.7899,
  "lon": -111.9791
},
{
  "iata": "DCA",
  "icao": "KDCA",
  "name": "Ronald Reagan Washington National Airport",
  "city": "Washington, D.C.",
  "country": "United States",
  "lat": 38.8512,
  "lon": -77.0402
},
{
  "iata": "PDX",
  "icao": "KPDX",
  "name": "Portland International Airport",
  "city": "Portland",
  "country": "United States",
  "lat": 45.5898,
  "lon": -122.5951
},
{
  "iata": "BWI",
  "icao": "KBWI",
  "name": "Baltimore/Washington International Thurgood Marshall Airport",
  "city": "Baltimore",
  "country": "United States",
  "lat": 39.1754,
  "lon": -76.6684
},
{
  "iata": "SAN",
  "icao": "KSAN",
  "name": "San Diego International Airport",
  "city": "San Diego",
  "country": "United States",
  "lat": 32.7338,
  "lon": -117.1933
},
{
  "iata": "TPA",
  "icao": "KTPA",
  "name": "Tampa International Airport",
  "city": "Tampa",
  "country": "United States",
  "lat": 27.9755,
  "lon": -82.5332
},
{
  "iata": "HOU",
  "icao": "KHOU",
  "name": "William P. Hobby Airport",
  "city": "Houston",
  "country": "United States",
  "lat": 29.6454,
  "lon": -95.2789
},
{
  "iata": "STL",
  "icao": "KSTL",
  "name": "St. Louis Lambert International Airport",
  "city": "St. Louis",
  "country": "United States",
  "lat": 38.7487,
  "lon": -90.3700
},
{
  "iata": "MCI",
  "icao": "KMCI",
  "name": "Kansas City International Airport",
  "city": "Kansas City",
  "country": "United States",
  "lat": 39.2976,
  "lon": -94.7139
},
{
  "iata": "BNA",
  "icao": "KBNA",
  "name": "Nashville International Airport",
  "city": "Nashville",
  "country": "United States",
  "lat": 36.1263,
  "lon": -86.6774
},
{
  "iata": "AUS",
  "icao": "KAUS",
  "name": "Austin-Bergstrom International Airport",
  "city": "Austin",
  "country": "United States",
  "lat": 30.1945,
  "lon": -97.6699
},
{
  "iata": "MSY",
  "icao": "KMSY",
  "name": "Louis Armstrong New Orleans International Airport",
  "city": "New Orleans",
  "country": "United States",
  "lat": 29.9934,
  "lon": -90.2580
},
{
  "iata": "RDU",
  "icao": "KRDU",
  "name": "Raleigh–Durham International Airport",
  "city": "Raleigh/Durham",
  "country": "United States",
  "lat": 35.8776,
  "lon": -78.7875
},
{
  "iata": "SJC",
  "icao": "KSJC",
  "name": "San Jose International Airport",
  "city": "San Jose",
  "country": "United States",
  "lat": 37.3626,
  "lon": -121.9290
},
{
  "iata": "CLE",
  "icao": "KCLE",
  "name": "Cleveland Hopkins International Airport",
  "city": "Cleveland",
  "country": "United States",
  "lat": 41.4117,
  "lon": -81.8498
},
{
  "iata": "SMF",
  "icao": "KSMF",
  "name": "Sacramento International Airport",
  "city": "Sacramento",
  "country": "United States",
  "lat": 38.6951,
  "lon": -121.5908
},
{
  "iata": "PIT",
  "icao": "KPIT",
  "name": "Pittsburgh International Airport",
  "city": "Pittsburgh",
  "country": "United States",
  "lat": 40.4914,
  "lon": -80.2329
}
]
